[
  {
    "id": "1978-tarija-bolivia",
    "name": "1978 Tarija UFO Crash",
    "lat": -22.1,
    "lng": -64.4,
    "total": 1200
  },
  {
    "id": "1980-la-joya-peru",
    "name": "1980 La Joya UFO Engagement - Oscar Santa Maria Huerta",
    "lat": -16.9,
    "lng": -71.9,
    "total": 1800
  },
  {
    "id": "1997-pucallpa-peru",
    "name": "1997 Pucallpa UFO Crash - Jonathan Weygandt",
    "lat": -8.4,
    "lng": -74.6,
    "total": 1100
  },
  {
    "id": "aguadilla-2013",
    "name": "Aguadilla Airport FLIR Incident",
    "lat": 18.49,
    "lng": -67.13,
    "total": 51779
  },
  {
    "id": "ariel-school-1994",
    "name": "Ariel School UFO Encounter",
    "lat": -17.87,
    "lng": 31.1,
    "total": 13345
  },
  {
    "id": "aurora-1897",
    "name": "Aurora Airship Crash",
    "lat": 33.055,
    "lng": -97.509,
    "total": 21000
  },
  {
    "id": "aztec-1948",
    "name": "Aztec UFO Crash",
    "lat": 36.897,
    "lng": -107.816,
    "total": 16500
  },
  {
    "id": "belgian-ufo-wave",
    "name": "Belgian UFO Wave",
    "lat": 50.62,
    "lng": 5.57,
    "total": 8260
  },
  {
    "id": "betty-barney-hill-1961",
    "name": "Betty and Barney Hill Abduction",
    "lat": 44.06,
    "lng": -71.67,
    "total": 22000
  },
  {
    "id": "bluegill-triple-prime-1962",
    "name": "Bluegill Triple Prime UAP Recovery",
    "lat": 16.73,
    "lng": -169.52,
    "total": 800
  },
  {
    "id": "cash-landrum-1980",
    "name": "Cash-Landrum Incident",
    "lat": 29.99,
    "lng": -95.07,
    "total": 31000
  },
  {
    "id": "coyame-1974",
    "name": "Coyame UFO Crash / Chihuahua Disk",
    "lat": 29.461,
    "lng": -105.093,
    "total": 3500
  },
  {
    "id": "coyne-helicopter-1973",
    "name": "Coyne Helicopter Incident",
    "lat": 40.76,
    "lng": -82.52,
    "total": 19000
  },
  {
    "id": "edwards-afb-1971",
    "name": "1971 UAP Crash North of Edwards AFB",
    "lat": 35.13,
    "lng": -117.99,
    "total": 29000
  },
  {
    "id": "exeter-1965",
    "name": "Exeter, New Hampshire Incident",
    "lat": 42.9814,
    "lng": -70.9478,
    "total": 35481
  },
  {
    "id": "falcon-lake-1967",
    "name": "Falcon Lake Incident",
    "lat": 49.75,
    "lng": -95.15,
    "total": 40835
  },
  {
    "id": "foo-fighters-wwii",
    "name": "Foo Fighters - WWII Aerial Phenomena (1944-1945)",
    "lat": 48.5734,
    "lng": 7.7521,
    "total": 1587
  },
  {
    "id": "fukushima-2011",
    "name": "Fukushima Daiichi UAP Sightings",
    "lat": 37.42,
    "lng": 141.03,
    "total": 45193
  },
  {
    "id": "iranian-f4-incident",
    "name": "Iranian F-4 Incident",
    "lat": 35.69,
    "lng": 51.39,
    "total": 22527
  },
  {
    "id": "jal-1628",
    "name": "JAL Flight 1628",
    "lat": 66.56,
    "lng": -145.25,
    "total": 5481
  },
  {
    "id": "kecksburg-1965",
    "name": "Kecksburg UFO Incident",
    "lat": 40.18,
    "lng": -79.46,
    "total": 35481
  },
  {
    "id": "kenneth-arnold-1947",
    "name": "Kenneth Arnold Sighting",
    "lat": 46.85,
    "lng": -121.73,
    "total": 24000
  },
  {
    "id": "kingman-1953",
    "name": "Kingman UFO Crash",
    "lat": 35.128,
    "lng": -113.975,
    "total": 12000
  },
  {
    "id": "levelland-1957",
    "name": "Levelland, Texas Encounter",
    "lat": 33.59,
    "lng": -102.37,
    "total": 28000
  },
  {
    "id": "loch-raven-dam-1958",
    "name": "Loch Raven Dam Encounter",
    "lat": 39.4668,
    "lng": -76.5614,
    "total": 20167
  },
  {
    "id": "lubbock-lights",
    "name": "Lubbock Lights",
    "lat": 33.5779,
    "lng": -101.8552,
    "total": 27000
  },
  {
    "id": "magenta-1933",
    "name": "Magenta UFO Crash - Italy 1933",
    "lat": 45.464,
    "lng": 8.88,
    "total": 6100
  },
  {
    "id": "malmstrom-afb-1967",
    "name": "Malmstrom AFB ICBM Shutdown Incidents",
    "lat": 47.51,
    "lng": -111.18,
    "total": 40835
  },
  {
    "id": "minot-afb-1968",
    "name": "Minot AFB Incident",
    "lat": 48.42,
    "lng": -101.35,
    "total": 37025
  },
  {
    "id": "nimitz-tic-tac",
    "name": "USS Nimitz / Tic Tac Encounter",
    "lat": 32.5,
    "lng": -117.5,
    "total": 22390
  },
  {
    "id": "ohare-airport-2006",
    "name": "O'Hare Airport Incident",
    "lat": 41.97,
    "lng": -87.91,
    "total": 28075
  },
  {
    "id": "phoenix-lights-1997",
    "name": "Phoenix Lights",
    "lat": 33.45,
    "lng": -112.07,
    "total": 15609
  },
  {
    "id": "rb47-1957",
    "name": "RB-47 Incident",
    "lat": 32.7,
    "lng": -97.3,
    "total": 20951
  },
  {
    "id": "rendlesham-forest",
    "name": "Rendlesham Forest Incident",
    "lat": 52.09,
    "lng": 1.43,
    "total": 11535
  },
  {
    "id": "roswell-1947",
    "name": "Roswell Incident",
    "lat": 33.67,
    "lng": -104.53,
    "total": 10361
  },
  {
    "id": "san-agustin-1947",
    "name": "Plains of San Agustin Incident",
    "lat": 34.07,
    "lng": -107.62,
    "total": 18000
  },
  {
    "id": "shag-harbour-1967",
    "name": "Shag Harbour Incident",
    "lat": 43.47,
    "lng": -65.75,
    "total": 40835
  },
  {
    "id": "socorro-1964",
    "name": "Socorro / Lonnie Zamora Incident",
    "lat": 34.05,
    "lng": -106.91,
    "total": 24308
  },
  {
    "id": "stephenville-tx-2008",
    "name": "Stephenville, Texas UAP Encounters",
    "lat": 32.22,
    "lng": -98.2,
    "total": 33780
  },
  {
    "id": "trans-en-provence-1981",
    "name": "Trans-en-Provence Landing",
    "lat": 43.527,
    "lng": 6.48,
    "total": 7500
  },
  {
    "id": "uss-omaha-2019",
    "name": "USS Omaha USO Incident",
    "lat": 32.8,
    "lng": -117.8,
    "total": 40134
  },
  {
    "id": "uss-theodore-roosevelt",
    "name": "USS Theodore Roosevelt Encounters",
    "lat": 35,
    "lng": -75.5,
    "total": 51084
  },
  {
    "id": "varginha-1996",
    "name": "Varginha Incident",
    "lat": -21.55,
    "lng": -45.43,
    "total": 14618
  },
  {
    "id": "voronezh-ufo-incident",
    "name": "Voronezh UFO Incident",
    "lat": 51.6596,
    "lng": 39.2006,
    "total": 5200
  },
  {
    "id": "walton-abduction-1975",
    "name": "Travis Walton Abduction",
    "lat": 34.51,
    "lng": -110.08,
    "total": 14000
  },
  {
    "id": "washington-dc-1952",
    "name": "Washington D.C. UFO Flap",
    "lat": 38.9072,
    "lng": -77.0369,
    "total": 28557
  },
  {
    "id": "westall-1966",
    "name": "Westall School UFO Incident",
    "lat": -37.9,
    "lng": 145.13,
    "total": 39537
  }
]
